,City,Country,Latitude,longitude,Temperature (F),Humidity (%),Cloudiness (%),Wind Speed (MPH)
0,Togur,RU,58.36,82.83,28.63,95,99,8.37
1,Cape Town,ZA,-33.93,18.42,66.2,45,0,28.86
2,Bluff,NZ,-46.6,168.33,46.99,92,7,4.65
3,Vardø,NO,70.37,31.11,33.8,80,75,19.46
4,Puerto Baquerizo Moreno,EC,-0.9,-89.6,66.49,80,99,11.5
5,Sistranda,NO,63.73,8.83,44.6,87,75,12.75
6,Tasiilaq,GL,65.61,-37.64,30.74,95,100,11.72
7,Talnakh,RU,69.49,88.4,-2.2,84,40,11.18
8,Khatanga,RU,71.97,102.5,0.16,92,100,7.67
9,Jamestown,US,42.1,-79.24,54.18,81,1,9.17
10,Butaritari,KI,3.07,172.79,81.81,78,6,8.81
11,Auki,SB,-8.77,160.7,80.29,81,74,5.06
12,Amahai,ID,-3.33,128.92,84.99,84,99,2.73
13,Bethel,US,41.37,-73.41,49.28,100,90,5.59
14,Kapaa,US,22.08,-159.32,76.03,74,75,13.87
15,Katsuura,JP,35.13,140.3,55.17,62,75,5.82
16,Nevel'sk,RU,46.67,141.86,19.4,79,40,4.47
17,Castro,BR,-24.79,-50.01,69.15,75,100,6.69
18,Rikitea,PF,-23.12,-134.97,73.76,79,2,15.79
19,Esperance,AU,-33.87,121.9,53.6,100,90,25.28
20,Cape Town,ZA,-33.93,18.42,66.2,45,0,28.86
21,Qaanaaq,GL,77.48,-69.36,-4.27,62,0,5.93
22,Albany,US,42.6,-73.97,48.97,100,1,2.73
23,Thompson,CA,55.74,-97.86,10.4,100,90,2.24
24,Avarua,CK,-21.21,-159.78,75.2,94,0,14.34
25,Saint George,US,37.1,-113.58,30.85,86,1,2.24
26,Plettenberg Bay,ZA,-34.05,23.37,63.48,57,34,7.99
27,Pevek,RU,69.7,170.31,18.54,95,90,6.29
28,Tuktoyaktuk,CA,69.45,-133.04,-6.36,89,0,8.3
29,Norman Wells,CA,65.28,-126.83,-9.4,76,75,1.86
30,Praia,CV,14.92,-23.51,86.0,58,0,12.75
31,Saldanha,ZA,-33.01,17.94,68.0,61,0,23.04
32,Umm Kaddadah,SD,13.6,26.69,89.53,16,31,12.73
33,Sitka,US,57.05,-135.33,33.8,80,1,5.17
34,Bluff,NZ,-46.6,168.33,46.99,92,7,4.65
35,Oddur,SO,4.12,43.89,86.61,37,0,16.82
36,Oranjemund,NA,-28.55,16.43,66.88,50,0,25.3
37,Pangnirtung,CA,66.15,-65.71,6.8,71,20,2.24
38,Arraial do Cabo,BR,-22.97,-42.03,78.8,78,90,10.29
39,Albany,US,42.6,-73.97,48.97,100,1,2.73
40,Busselton,AU,-33.65,115.33,51.64,72,56,7.2
41,Ushuaia,AR,-54.8,-68.3,48.2,57,20,13.87
42,Banda Aceh,ID,5.56,95.32,80.8,81,100,3.62
43,Port Elizabeth,ZA,-33.92,25.57,66.2,68,75,10.29
44,Mataura,NZ,-46.19,168.86,46.99,92,2,1.21
45,Parintins,BR,-2.63,-56.74,80.47,79,100,3.53
46,Mayo,US,38.89,-76.51,56.1,100,40,6.22
47,Bredasdorp,ZA,-34.53,20.04,69.8,40,0,17.22
48,Poum,NC,-20.23,164.02,74.91,74,100,11.32
49,Busselton,AU,-33.65,115.33,51.64,72,56,7.2
50,Jamestown,US,42.1,-79.24,54.18,81,1,9.17
51,Marsh Harbour,BS,26.54,-77.06,80.37,83,88,23.76
52,Vila Franca do Campo,PT,37.72,-25.43,66.2,88,75,27.51
53,Vestmannaeyjar,IS,63.44,-20.27,42.8,70,20,17.22
54,Dodoma,TZ,-6.17,35.74,82.4,48,40,11.41
55,Yellowknife,CA,62.46,-114.35,0.63,70,40,16.11
56,Hobart,AU,-42.88,147.33,62.71,60,0,6.93
57,Majene,ID,-3.54,118.97,80.65,77,4,4.76
58,Saint Paul Harbor,US,57.79,-152.41,30.2,80,1,4.7
59,Ponta do Sol,PT,32.67,-17.1,66.81,60,75,8.05
60,Cape Town,ZA,-33.93,18.42,66.2,45,0,28.86
61,Chui,UY,-33.7,-53.46,59.36,89,100,11.39
62,Kharitonovo,RU,61.4,47.5,30.83,96,96,7.02
63,Castro,BR,-24.79,-50.01,69.15,75,100,6.69
64,Rikitea,PF,-23.12,-134.97,73.76,79,2,15.79
65,Qaanaaq,GL,77.48,-69.36,-4.27,62,0,5.93
66,Dingle,PH,11.0,122.67,76.86,87,100,3.94
67,San,ML,13.3,-4.9,94.96,10,0,8.14
68,Kalianget,ID,-7.05,113.93,84.61,66,2,6.76
69,Rikitea,PF,-23.12,-134.97,73.76,79,2,15.79
70,Vaini,TO,-21.2,-175.2,75.2,88,40,5.82
71,Yellowknife,CA,62.46,-114.35,0.63,70,40,16.11
72,Norman Wells,CA,65.28,-126.83,-9.4,76,75,1.86
73,Kribi,CM,2.95,9.92,81.57,79,79,9.8
74,Upernavik,GL,72.79,-56.15,6.66,85,100,9.17
75,Krasnosel'kup,RU,65.7,82.47,4.42,94,94,5.19
76,Albany,US,42.6,-73.97,48.97,100,1,2.73
77,Yellowknife,CA,62.46,-114.35,0.63,70,40,16.11
78,Torbay,CA,47.67,-52.73,45.72,93,90,14.99
79,Bethel,US,41.37,-73.41,49.28,100,90,5.59
80,Ambon City,ID,-3.7,128.18,80.01,14,89,3.87
81,Honiara,SB,-9.43,159.95,75.2,94,20,3.36
82,Lebu,CL,-37.62,-73.65,56.88,72,20,17.6
83,Albany,US,42.6,-73.97,48.97,100,1,2.73
84,Bonfim,BR,3.08,-59.95,85.26,57,0,7.27
85,Whitecourt,CA,54.15,-115.69,30.34,92,100,6.85
86,Bela Vista,BR,-22.11,-56.52,83.73,64,100,5.57
87,Severo-Kuril'sk,RU,50.68,156.12,36.55,78,100,13.38
88,Grindavik,IS,63.84,-22.43,37.4,86,75,11.41
89,New Norfolk,AU,-42.78,147.06,62.02,57,37,2.62
90,Bredasdorp,ZA,-34.53,20.04,69.8,40,0,17.22
91,Imbituba,BR,-28.24,-48.67,69.8,100,90,4.7
92,Airai,TL,-8.93,125.41,64.4,100,100,1.83
93,Cape Town,ZA,-33.93,18.42,66.2,45,0,28.86
94,Opuwo,NA,-18.06,13.84,98.37,10,72,5.55
95,Ust'-Kulom,RU,61.69,53.69,28.29,97,100,6.2
96,Saint Paul Harbor,US,57.79,-152.41,30.2,80,1,4.7
97,Vostok,RU,46.49,135.88,5.34,94,41,2.51
98,Wilkes-Barre,US,41.25,-75.88,53.87,93,1,4.7
99,Rikitea,PF,-23.12,-134.97,73.76,79,2,15.79
100,Provideniya,RU,64.38,-173.3,35.6,92,100,25.99
101,Saint George,US,37.1,-113.58,30.85,86,1,2.24
102,Kapaa,US,22.08,-159.32,76.03,74,75,13.87
103,Rikitea,PF,-23.12,-134.97,73.76,79,2,15.79
104,Mataura,NZ,-46.19,168.86,46.99,92,2,1.21
105,Port Elizabeth,ZA,-33.92,25.57,66.2,68,75,10.29
106,Bethel,US,41.37,-73.41,49.28,100,90,5.59
107,Ponta do Sol,PT,32.67,-17.1,66.81,60,75,8.05
108,Mataura,NZ,-46.19,168.86,46.99,92,2,1.21
109,Northam,GB,51.03,-4.22,54.97,93,5,3.0
110,Cape Town,ZA,-33.93,18.42,66.2,45,0,28.86
111,Ushuaia,AR,-54.8,-68.3,48.2,57,20,13.87
112,Westport,US,41.14,-73.36,51.89,100,1,7.0
113,Cape Town,ZA,-33.93,18.42,66.2,45,0,28.86
114,Rikitea,PF,-23.12,-134.97,73.76,79,2,15.79
115,Vestmannaeyjar,IS,63.44,-20.27,42.8,70,20,17.22
116,Arraial do Cabo,BR,-22.97,-42.03,78.8,78,90,10.29
117,Hithadhoo,MV,-0.6,73.08,83.46,76,100,16.31
118,Ippy,CF,6.27,21.22,87.48,42,1,3.0
119,Esmeraldas,BR,-19.76,-44.31,76.41,69,40,3.36
120,Safi,MA,32.3,-9.24,71.62,55,0,13.11
121,Hermanus,ZA,-34.42,19.23,71.01,48,0,8.99
122,Ancud,CL,-41.87,-73.82,55.53,76,0,11.41
123,Ushuaia,AR,-54.8,-68.3,48.2,57,20,13.87
124,Aklavik,CA,68.22,-135.01,-6.65,76,0,4.7
125,Payo,ID,-3.75,103.64,75.87,84,87,2.24
126,George Town,MY,5.41,100.34,83.23,79,20,3.36
127,Porbandar,IN,21.64,69.61,83.32,40,0,7.47
128,Malinovskiy,RU,61.2,62.84,25.39,93,52,3.6
129,Ushuaia,AR,-54.8,-68.3,48.2,57,20,13.87
130,Puerto del Rosario,ES,28.5,-13.86,73.4,64,20,14.99
131,Sarlat-la-Canéda,FR,44.89,1.22,64.0,70,45,1.99
132,Arraial do Cabo,BR,-22.97,-42.03,78.8,78,90,10.29
133,Severo-Kuril'sk,RU,50.68,156.12,36.55,78,100,13.38
134,Kapaa,US,22.08,-159.32,76.03,74,75,13.87
135,Verkhnyaya Inta,RU,65.98,60.31,14.02,96,7,8.48
136,Ushuaia,AR,-54.8,-68.3,48.2,57,20,13.87
137,Nikolskoye,RU,59.7,30.79,37.69,64,0,8.95
138,Limbe,CM,4.02,9.21,86.4,70,40,3.36
139,Puerto Quijarro,BO,-17.78,-57.77,86.45,47,100,3.96
140,Geraldton,AU,-28.77,114.6,60.8,59,90,4.7
141,Acapulco de Juárez,MX,16.86,-99.89,76.3,82,1,4.03
142,Ushuaia,AR,-54.8,-68.3,48.2,57,20,13.87
143,Puerto Ayora,EC,-0.74,-90.35,66.0,92,99,9.48
144,Ayna,PE,-12.65,-73.92,60.8,44,0,1.12
145,Derzhavīnsk,KZ,51.1,66.32,32.7,88,59,14.52
146,East London,ZA,-33.02,27.91,66.2,68,20,3.36
147,Pauini,BR,-7.71,-66.98,73.22,98,100,3.29
148,East London,ZA,-33.02,27.91,66.2,68,20,3.36
149,Okhotsk,RU,59.38,143.3,-1.17,87,0,14.92
150,Wahpeton,US,46.27,-96.61,17.8,92,1,4.7
151,Albany,US,42.6,-73.97,48.97,100,1,2.73
152,Vaini,TO,-21.2,-175.2,75.2,88,40,5.82
153,Kapaa,US,22.08,-159.32,76.03,74,75,13.87
154,Kaeo,NZ,-35.1,173.78,55.0,87,14,1.99
155,Cape Town,ZA,-33.93,18.42,66.2,45,0,28.86
156,Rikitea,PF,-23.12,-134.97,73.76,79,2,15.79
157,Hobart,AU,-42.88,147.33,62.71,60,0,6.93
158,Tiksi,RU,71.69,128.87,-9.62,89,98,5.46
159,Kapaa,US,22.08,-159.32,76.03,74,75,13.87
160,Rikitea,PF,-23.12,-134.97,73.76,79,2,15.79
161,Laas,IT,46.62,10.7,55.04,53,75,5.82
162,Aklavik,CA,68.22,-135.01,-6.65,76,0,4.7
163,Hay River,CA,60.82,-115.8,14.0,72,100,18.34
164,Paragominas,BR,-2.97,-47.48,82.18,80,100,4.56
165,Westport,US,41.14,-73.36,51.89,100,1,7.0
166,Santa Cecília,BR,-26.96,-50.43,65.48,78,99,4.12
167,Marsá Maţrūḩ,EG,31.35,27.25,72.14,51,0,10.98
168,Mount Gambier,AU,-37.83,140.77,77.0,47,100,18.34
169,Acajutla,SV,13.59,-89.83,69.01,100,29,3.62
170,Cape Town,ZA,-33.93,18.42,66.2,45,0,28.86
171,Ushuaia,AR,-54.8,-68.3,48.2,57,20,13.87
172,Carnarvon,AU,-24.87,113.63,68.0,64,0,20.8
173,Dekar,BW,-21.53,21.93,94.17,22,22,3.94
174,Chokurdakh,RU,70.63,147.92,-11.38,91,98,2.84
175,Saint-François,FR,46.42,3.91,58.93,100,75,1.12
176,Beidao,CN,34.57,105.89,52.84,71,0,4.76
177,Lebu,CL,-37.62,-73.65,56.88,72,20,17.6
178,Kīhei,US,20.79,-156.47,72.57,65,1,14.99
179,Arraial do Cabo,BR,-22.97,-42.03,78.8,78,90,10.29
180,Nikolskoye,RU,59.7,30.79,37.69,64,0,8.95
181,San Jerónimo,PE,-11.95,-75.28,55.71,57,89,1.14
182,Rikitea,PF,-23.12,-134.97,73.76,79,2,15.79
183,Avera,US,33.19,-82.53,66.74,89,90,9.17
184,Tando Jam,PK,25.43,68.54,80.91,18,0,1.61
185,Fortuna,US,40.6,-124.16,40.35,86,90,8.05
186,Ürümqi,CN,43.8,87.6,42.8,48,0,4.47
187,Kualakapuas,ID,-3.01,114.39,78.8,94,36,3.36
188,Butaritari,KI,3.07,172.79,81.81,78,6,8.81
189,Cabo San Lucas,MX,22.89,-109.91,70.02,77,50,3.0
190,Dikson,RU,73.51,80.55,18.16,98,100,16.93
191,Homer,US,59.64,-151.55,34.29,79,1,8.05
192,Rikitea,PF,-23.12,-134.97,73.76,79,2,15.79
193,Torbay,CA,47.67,-52.73,45.72,93,90,14.99
194,Rikitea,PF,-23.12,-134.97,73.76,79,2,15.79
195,Valea Nucarilor,RO,45.03,28.93,48.09,70,75,9.17
196,Bluff,NZ,-46.6,168.33,46.99,92,7,4.65
197,Albany,US,42.6,-73.97,48.97,100,1,2.73
198,Karaman Province,TR,37.08,33.25,56.52,42,0,10.85
199,San Jose,US,37.34,-121.89,39.9,69,1,3.36
200,Tomatlán,MX,19.93,-105.25,69.3,92,25,2.95
201,Bengkulu,ID,-3.8,102.27,77.81,83,100,1.61
202,Winsum,NL,53.33,6.52,43.21,100,90,5.82
203,Airai,TL,-8.93,125.41,64.4,100,100,1.83
204,New Norfolk,AU,-42.78,147.06,61.03,57,0,2.77
205,Mariental,NA,-24.63,17.97,89.91,12,0,6.76
206,Hong Kong,HK,22.29,114.16,69.12,69,61,1.99
207,Ust-Nera,RU,64.57,143.2,-20.54,78,46,3.4
208,Aklavik,CA,68.22,-135.01,-6.65,76,0,4.7
209,New Norfolk,AU,-42.78,147.06,61.03,57,0,2.77
210,Tuktoyaktuk,CA,69.45,-133.04,-6.36,89,0,8.3
211,Rikitea,PF,-23.12,-134.97,73.76,79,2,15.79
212,Wonthaggi,AU,-38.6,145.59,66.45,57,0,10.58
213,Hobart,AU,-42.88,147.33,62.71,60,0,6.93
214,Arraial do Cabo,BR,-22.97,-42.03,78.8,78,90,10.29
215,Codrington,AU,-38.27,141.97,70.47,67,100,17.09
216,Abu Dhabi,AE,24.47,54.37,87.03,52,0,13.87
217,Vaini,TO,-21.2,-175.2,75.2,88,40,5.82
218,Coolum Beach,AU,-26.53,153.1,61.43,89,11,4.36
219,Kavaratti,IN,10.57,72.64,83.64,72,94,9.24
220,Saint-Pierre,RE,-21.34,55.48,71.96,69,90,20.8
221,George Town,MY,5.41,100.34,83.23,79,20,3.36
222,Ponta do Sol,PT,32.67,-17.1,66.81,60,75,8.05
223,Namikupa,TZ,-10.83,39.6,91.72,31,56,11.97
224,Ushuaia,AR,-54.8,-68.3,48.2,57,20,13.87
225,São José da Coroa Grande,BR,-8.9,-35.15,82.04,67,2,11.54
226,Lebu,CL,-37.62,-73.65,56.88,72,20,17.6
227,Constitución,CL,-35.33,-72.42,64.72,59,0,1.19
228,Gorontalo,ID,0.54,123.06,76.41,85,72,3.18
229,Dayong,CN,25.02,118.29,68.0,52,0,17.9
230,Lorengau,PG,-2.02,147.27,82.8,72,71,6.69
231,Ribeira Grande,PT,38.52,-28.7,60.8,87,75,20.8
232,Canchungo,GW,12.07,-16.03,90.37,62,75,2.24
233,Bonavista,CA,48.65,-53.11,43.02,93,69,5.82
234,Bredasdorp,ZA,-34.53,20.04,69.8,40,0,17.22
235,Lompoc,US,34.64,-120.46,38.21,74,1,6.93
236,Rikitea,PF,-23.12,-134.97,73.76,79,2,15.79
237,East London,ZA,-33.02,27.91,66.2,68,20,3.36
238,Ranot,TH,7.78,100.32,80.96,81,100,9.55
239,Port Alfred,ZA,-33.59,26.89,63.88,69,100,6.42
240,Lahore,PK,31.55,74.34,75.2,53,40,2.86
241,Mataura,NZ,-46.19,168.86,46.99,92,2,1.21
242,Hithadhoo,MV,-0.6,73.08,83.46,76,100,16.31
243,Arlit,NE,18.74,7.39,84.29,15,0,5.03
244,Pacanga,PE,-7.17,-79.5,62.6,82,40,6.93
245,Vaini,TO,-21.2,-175.2,75.2,88,40,5.82
246,Qaanaaq,GL,77.48,-69.36,-4.27,62,0,5.93
247,Dikson,RU,73.51,80.55,18.16,98,100,16.93
248,Hobart,AU,-42.88,147.33,62.71,60,0,6.93
249,Barrow,US,71.29,-156.79,10.4,78,1,25.28
250,Poso,ID,-1.4,120.75,81.0,67,100,4.34
251,Saint-Augustin,CA,51.23,-58.65,43.38,94,100,16.87
252,Shimoda,JP,34.67,138.95,46.99,78,9,6.15
253,Provideniya,RU,64.38,-173.3,35.6,92,100,25.99
254,Ostrovnoy,RU,68.05,39.51,33.22,90,100,15.48
255,Vaini,TO,-21.2,-175.2,75.2,88,40,5.82
256,Jamestown,US,42.1,-79.24,54.18,81,1,9.17
257,Mar del Plata,AR,-38.0,-57.56,68.0,68,20,9.17
258,Kieta,PG,-6.22,155.63,80.29,75,96,2.35
259,Hermanus,ZA,-34.42,19.23,71.01,48,0,8.99
260,Bluff,NZ,-46.6,168.33,46.99,92,7,4.65
261,São Félix do Xingu,BR,-6.64,-51.99,88.5,57,100,1.68
262,Alto Araguaia,BR,-17.31,-53.22,77.22,69,100,8.79
263,Kavaratti,IN,10.57,72.64,83.64,72,94,9.24
264,Lingao,CN,19.91,109.69,71.31,69,98,17.07
265,Arraial do Cabo,BR,-22.97,-42.03,78.8,78,90,10.29
266,Husavik,IS,66.04,-17.34,41.0,56,0,4.7
267,Hilo,US,19.73,-155.09,68.83,88,90,3.36
268,Cherskiy,RU,68.75,161.3,0.3,93,100,5.03
269,Souillac,MU,-20.52,57.52,78.8,65,40,11.41
270,Kosa,RU,59.94,55.0,24.44,97,91,6.26
271,Maumere,ID,-8.62,122.21,82.54,71,100,1.01
272,Castro,BR,-24.79,-50.01,69.15,75,100,6.69
273,Tiksi,RU,71.69,128.87,-9.62,89,98,5.46
274,Sinnamary,GF,5.38,-52.95,82.85,74,69,9.06
275,Ushuaia,AR,-54.8,-68.3,48.2,57,20,13.87
276,Mīnāb,IR,27.15,57.08,89.6,29,100,9.17
277,Limenaria,GR,40.63,24.58,64.81,48,75,12.75
278,Albany,US,42.6,-73.97,48.97,100,1,2.73
279,Vanimo,PG,-2.67,141.3,80.65,79,72,3.69
280,Hilo,US,19.73,-155.09,68.83,88,90,3.36
281,Great Yarmouth,GB,52.61,1.73,56.71,99,0,1.99
282,Yakeshi,CN,49.28,120.73,22.46,93,0,4.79
283,Atuona,PF,-9.8,-139.03,77.32,76,3,14.5
284,Bredasdorp,ZA,-34.53,20.04,69.8,40,0,17.22
285,Columbus,US,39.96,-83.0,55.6,33,1,5.82
286,Vaini,TO,-21.2,-175.2,75.2,88,40,5.82
287,Macia,MZ,-25.03,33.1,80.38,56,36,15.64
288,Punta Arenas,CL,-53.15,-70.92,51.8,62,20,11.41
289,Punta Arenas,CL,-53.15,-70.92,51.8,62,20,11.41
290,Cidreira,BR,-30.18,-50.21,71.82,87,4,12.1
291,Homer,US,59.64,-151.55,34.29,79,1,8.05
292,Ribeira Grande,PT,38.52,-28.7,60.8,87,75,20.8
293,Yulara,AU,-25.24,130.99,95.0,14,0,9.17
294,Tiksi,RU,71.69,128.87,-9.62,89,98,5.46
295,Yellowknife,CA,62.46,-114.35,0.63,70,40,16.11
296,Busselton,AU,-33.65,115.33,51.64,72,56,7.2
297,Faanui,PF,-16.48,-151.75,76.35,79,100,9.33
298,Chokurdakh,RU,70.63,147.92,-11.38,91,98,2.84
299,Klaksvík,FO,62.23,-6.59,51.8,100,100,16.11
300,Ancud,CL,-41.87,-73.82,55.53,76,0,11.41
301,Merrill,US,45.18,-89.68,38.19,100,90,7.58
302,Hermanus,ZA,-34.42,19.23,71.01,48,0,8.99
303,Tautira,PF,-17.73,-149.15,75.2,83,75,5.82
304,Lebu,CL,-37.62,-73.65,56.88,72,20,17.6
305,Tiksi,RU,71.69,128.87,-9.62,89,98,5.46
306,Port Elizabeth,ZA,-33.92,25.57,66.2,68,75,10.29
307,Torbay,CA,47.67,-52.73,45.72,93,90,14.99
308,Qaanaaq,GL,77.48,-69.36,-4.27,62,0,5.93
309,Savannah Bight,HN,16.45,-85.85,73.4,94,40,12.68
310,Punta Arenas,CL,-53.15,-70.92,51.8,62,20,11.41
311,Punta Arenas,CL,-53.15,-70.92,51.8,62,20,11.41
312,Vryheid,ZA,-27.77,30.79,61.02,78,100,7.18
313,Hermanus,ZA,-34.42,19.23,71.01,48,0,8.99
314,Kaitangata,NZ,-46.28,169.85,50.0,82,8,4.0
315,Qaanaaq,GL,77.48,-69.36,-4.27,62,0,5.93
316,Tasiilaq,GL,65.61,-37.64,30.74,95,100,11.72
317,Port Hardy,CA,50.7,-127.42,39.2,100,90,9.71
318,Kapaa,US,22.08,-159.32,76.03,74,75,13.87
319,Tiksi,RU,71.69,128.87,-9.62,89,98,5.46
320,Ponta do Sol,PT,32.67,-17.1,66.81,60,75,8.05
321,Raja,SS,8.46,25.68,94.35,19,0,5.57
322,Iqaluit,CA,63.75,-68.51,10.4,72,75,19.46
323,Vrangel',RU,42.73,133.08,30.99,79,0,5.57
324,Arlit,NE,18.74,7.39,84.29,15,0,5.03
325,Bluff,NZ,-46.6,168.33,46.99,92,7,4.65
326,Takoradze,GH,4.88,-1.76,83.48,69,34,7.63
327,Rondonópolis,BR,-16.47,-54.64,85.48,56,100,7.54
328,Hermanus,ZA,-34.42,19.23,71.01,48,0,8.99
329,Ushuaia,AR,-54.8,-68.3,48.2,57,20,13.87
330,Coquimbo,CL,-29.95,-71.34,53.6,93,90,3.36
331,Dikson,RU,73.51,80.55,18.16,98,100,16.93
332,Hobart,AU,-42.88,147.33,62.71,60,0,6.93
333,Malakal,SS,9.53,31.66,96.03,17,1,8.21
334,Narsaq,GL,60.92,-46.05,23.0,85,75,3.36
335,Ponta do Sol,PT,32.67,-17.1,66.81,60,75,8.05
336,Hūn,LY,29.13,15.95,71.69,41,35,9.51
337,Madang,PG,-5.22,145.8,78.78,86,100,3.13
338,Lompoc,US,34.64,-120.46,38.21,74,1,6.93
339,Albany,US,42.6,-73.97,48.97,100,1,2.73
340,Geraldton,AU,-28.77,114.6,60.8,59,90,4.7
341,Punta Arenas,CL,-53.15,-70.92,51.8,62,20,11.41
342,Chacao,VE,10.5,-66.85,74.57,78,40,2.24
343,George Town,MY,5.41,100.34,83.23,79,20,3.36
344,Rikitea,PF,-23.12,-134.97,73.76,79,2,15.79
345,Puerto Ayora,EC,-0.74,-90.35,66.0,92,99,9.48
346,Rikitea,PF,-23.12,-134.97,73.76,79,2,15.79
347,Broome,US,42.25,-75.83,52.57,93,1,6.93
348,Bredasdorp,ZA,-34.53,20.04,69.8,40,0,17.22
349,Port-Gentil,GA,-0.72,8.78,86.0,70,40,13.87
350,Aloleng,PH,16.13,119.78,80.51,82,100,8.86
351,Norman Wells,CA,65.28,-126.83,-9.4,76,75,1.86
352,Olinda,BR,-8.01,-34.86,84.2,66,40,16.11
353,Avarua,CK,-21.21,-159.78,75.2,94,0,14.34
354,Chifeng,CN,42.27,118.96,42.75,58,0,7.4
355,Dahuk,IQ,36.87,42.99,67.46,52,0,4.85
356,Punta Arenas,CL,-53.15,-70.92,51.8,62,20,11.41
357,Hasaki,JP,35.73,140.83,43.93,81,75,3.36
358,Ushuaia,AR,-54.8,-68.3,48.2,57,20,13.87
359,Atuona,PF,-9.8,-139.03,77.32,76,3,14.5
360,Clyde River,CA,70.47,-68.59,5.0,84,90,13.87
361,Iqaluit,CA,63.75,-68.51,10.4,72,75,19.46
362,Ushuaia,AR,-54.8,-68.3,48.2,57,20,13.87
363,Dikson,RU,73.51,80.55,18.16,98,100,16.93
364,Shingū,JP,33.73,135.98,47.57,77,0,7.43
365,Bethel,US,41.37,-73.41,49.28,100,90,5.59
366,Saldanha,ZA,-33.01,17.94,68.0,61,0,23.04
367,Kenai,US,60.55,-151.26,27.79,92,75,3.36
368,Ushuaia,AR,-54.8,-68.3,48.2,57,20,13.87
369,Ushuaia,AR,-54.8,-68.3,48.2,57,20,13.87
370,Qaanaaq,GL,77.48,-69.36,-4.27,62,0,5.93
371,Mataura,NZ,-46.19,168.86,46.99,92,2,1.21
372,Bay Roberts,CA,47.6,-53.26,45.0,98,100,8.99
373,Atuona,PF,-9.8,-139.03,77.32,76,3,14.5
374,Saint-Philippe,RE,-21.36,55.77,71.47,69,90,20.8
375,Saskylakh,RU,71.92,114.08,6.03,94,100,3.13
376,Hilo,US,19.73,-155.09,68.83,88,90,3.36
377,Hobart,AU,-42.88,147.33,62.71,60,0,6.93
378,Oussouye,SN,12.48,-16.55,90.48,66,40,4.7
379,Cape Town,ZA,-33.93,18.42,66.2,45,0,28.86
380,Port Alfred,ZA,-33.59,26.89,63.88,69,100,6.42
381,Hithadhoo,MV,-0.6,73.08,83.46,76,100,16.31
382,Bredasdorp,ZA,-34.53,20.04,69.8,40,0,17.22
383,Trebinje,BA,42.71,18.34,66.2,52,0,4.7
384,Vestmannaeyjar,IS,63.44,-20.27,42.8,70,20,17.22
385,Kiama,AU,-34.68,150.87,57.49,93,3,10.85
386,Oktyabr'skiy,RU,54.48,53.47,30.45,95,100,11.99
387,Butaritari,KI,3.07,172.79,81.81,78,6,8.81
388,Busselton,AU,-33.65,115.33,51.64,72,56,7.2
389,Terrace Bay,CA,48.78,-87.1,37.4,86,100,10.29
390,Bambous Virieux,MU,-20.34,57.76,78.42,65,40,11.41
391,Lebu,CL,-37.62,-73.65,56.88,72,20,17.6
392,Seoul,KR,37.57,126.98,42.78,75,1,2.91
393,Albany,US,42.6,-73.97,48.97,100,1,2.73
394,Fortuna,US,40.6,-124.16,40.35,86,90,8.05
395,Portoferraio,IT,42.81,10.31,64.11,82,40,1.43
396,Busselton,AU,-33.65,115.33,51.64,72,56,7.2
397,Rikitea,PF,-23.12,-134.97,73.76,79,2,15.79
398,Punta Arenas,CL,-53.15,-70.92,51.8,62,20,11.41
399,Dukat,RU,62.55,155.55,-20.15,86,36,4.14
400,Iqaluit,CA,63.75,-68.51,10.4,72,75,19.46
401,Isangel,VU,-19.55,169.27,75.24,85,100,14.61
402,Presque Isle,US,46.68,-68.02,55.51,67,1,4.7
403,Ushuaia,AR,-54.8,-68.3,48.2,57,20,13.87
404,Dingle,PH,11.0,122.67,76.86,87,100,3.94
405,Ushuaia,AR,-54.8,-68.3,48.2,57,20,13.87
406,Bauchi,NG,10.5,10.0,90.91,18,0,6.08
407,Ust-Tsilma,RU,65.44,52.15,23.76,94,0,5.75
408,Bilma,NE,18.69,12.92,82.63,19,0,4.65
409,Albany,US,42.6,-73.97,48.97,100,1,2.73
410,Bluff,NZ,-46.6,168.33,46.99,92,7,4.65
411,Dudinka,RU,69.41,86.18,-2.2,84,40,11.18
412,Noyabrsk,RU,63.2,75.45,14.05,97,93,4.23
413,Punta Arenas,CL,-53.15,-70.92,51.8,62,20,11.41
414,Skegness,GB,53.14,0.34,55.6,87,40,9.17
415,Olinda,BR,-8.01,-34.86,84.2,66,40,16.11
416,Ketchikan,US,55.34,-131.65,40.62,100,90,4.7
417,Provideniya,RU,64.38,-173.3,35.6,92,100,25.99
418,Port Alfred,ZA,-33.59,26.89,63.88,69,100,6.42
419,Ribeira Grande,PT,38.52,-28.7,60.8,87,75,20.8
420,Atuona,PF,-9.8,-139.03,77.32,76,3,14.5
421,Albany,US,42.6,-73.97,48.97,100,1,2.73
422,Paamiut,GL,61.99,-49.67,24.53,90,100,4.29
423,Haines Junction,CA,60.75,-137.51,10.4,85,53,2.24
424,Avarua,CK,-21.21,-159.78,75.2,94,0,14.34
425,Port Alfred,ZA,-33.59,26.89,63.88,69,100,6.42
426,Butaritari,KI,3.07,172.79,81.81,78,6,8.81
427,Port Alfred,ZA,-33.59,26.89,63.88,69,100,6.42
428,San Cristobal,VE,7.77,-72.22,75.2,94,75,2.24
429,Pochutla,MX,15.74,-96.47,73.99,93,0,3.24
430,Rikitea,PF,-23.12,-134.97,73.76,79,2,15.79
431,Punta Arenas,CL,-53.15,-70.92,51.8,62,20,11.41
432,Middle Island,US,40.88,-72.94,55.69,93,1,9.62
433,Syriam,MM,16.77,96.24,84.2,70,8,3.36
434,Hobart,AU,-42.88,147.33,62.71,60,0,6.93
435,New Norfolk,AU,-42.78,147.06,61.03,57,0,2.77
436,Busselton,AU,-33.65,115.33,51.64,72,56,7.2
437,Atuona,PF,-9.8,-139.03,77.32,76,3,14.5
438,Thompson,CA,55.74,-97.86,10.4,100,90,2.24
439,Atuona,PF,-9.8,-139.03,77.32,76,3,14.5
440,Punta Arenas,CL,-53.15,-70.92,51.8,62,20,11.41
441,Hualmay,PE,-11.1,-77.61,64.33,76,78,5.57
442,La Palma,US,33.85,-118.05,45.72,70,1,2.42
443,Hefei,CN,31.86,117.28,58.59,50,0,4.47
444,Nantucket,US,41.28,-70.1,56.14,93,20,6.93
445,Tiksi,RU,71.69,128.87,-9.62,89,98,5.46
446,Mataura,NZ,-46.19,168.86,46.99,92,2,1.21
447,Tura,IN,25.52,90.22,67.17,83,0,3.56
448,Port Elizabeth,ZA,-33.92,25.57,66.2,68,75,10.29
449,Sitka,US,57.05,-135.33,33.8,80,1,5.17
450,Chui,UY,-33.7,-53.46,59.36,89,100,11.39
451,Kādīpur,IN,26.17,82.38,74.44,33,0,3.58
452,Necochea,AR,-38.55,-58.74,68.0,69,36,8.99
453,Twentynine Palms,US,34.14,-116.05,37.4,47,1,5.82
454,Beloha,MG,-25.17,45.05,89.46,39,0,13.13
455,Esperance,AU,-33.87,121.9,53.6,100,90,25.28
456,Kapaa,US,22.08,-159.32,76.03,74,75,13.87
457,Lebu,CL,-37.62,-73.65,56.88,72,20,17.6
458,Bethel,US,41.37,-73.41,49.28,100,90,5.59
459,São Félix do Xingu,BR,-6.64,-51.99,88.5,57,100,1.68
460,Vaini,TO,-21.2,-175.2,75.2,88,40,5.82
461,Cape Town,ZA,-33.93,18.42,66.2,45,0,28.86
462,Tezu,IN,27.92,96.17,70.66,56,0,3.58
463,Murgab,TM,37.5,61.97,64.4,34,0,9.17
464,Río Gallegos,AR,-51.62,-69.22,53.6,71,0,3.36
465,Saint-Augustin,CA,51.23,-58.65,43.38,94,100,16.87
466,Bud,US,39.45,-86.18,61.65,87,90,5.82
467,Puerto Ayora,EC,-0.74,-90.35,66.0,92,99,9.48
468,Santo Antônio do Sudoeste,BR,-26.07,-53.73,77.54,60,89,5.01
469,Katsuura,JP,35.13,140.3,55.17,62,75,5.82
470,Punta Arenas,CL,-53.15,-70.92,51.8,62,20,11.41
471,Guerrero Negro,MX,27.98,-114.06,58.95,64,1,9.98
472,Bilma,NE,18.69,12.92,82.63,19,0,4.65
473,Saint Paul Harbor,US,57.79,-152.41,30.2,80,1,4.7
474,Bonthe,SL,7.53,-12.51,87.22,66,34,2.84
475,Tuktoyaktuk,CA,69.45,-133.04,-6.36,89,0,8.3
476,Port Lincoln,AU,-34.73,135.87,61.29,68,89,20.0
477,Jamestown,US,42.1,-79.24,54.18,81,1,9.17
478,Bambous Virieux,MU,-20.34,57.76,78.42,65,40,11.41
479,Mataura,NZ,-46.19,168.86,46.99,92,2,1.21
480,Coquimbo,CL,-29.95,-71.34,53.6,93,90,3.36
481,Ushuaia,AR,-54.8,-68.3,48.2,57,20,13.87
482,Narsaq,GL,60.92,-46.05,23.0,85,75,3.36
483,Busselton,AU,-33.65,115.33,51.64,72,56,7.2
484,Conceição do Araguaia,BR,-8.26,-49.26,89.2,60,100,1.99
485,Port Elizabeth,ZA,-33.92,25.57,66.2,68,75,10.29
486,Clonakilty,IE,51.62,-8.87,52.41,87,75,14.99
487,Saint-Philippe,RE,-21.36,55.77,71.47,69,90,20.8
488,Beloha,MG,-25.17,45.05,89.46,39,0,13.13
489,Hobart,AU,-42.88,147.33,62.71,60,0,6.93
490,Busselton,AU,-33.65,115.33,51.64,72,56,7.2
491,Severo-Yeniseyskiy,RU,60.37,93.04,26.26,98,100,6.55
492,Thompson,CA,55.74,-97.86,10.4,100,90,2.24
493,Rikitea,PF,-23.12,-134.97,73.76,79,2,15.79
494,Busselton,AU,-33.65,115.33,51.64,72,56,7.2
495,Águia Branca,BR,-18.98,-40.74,77.76,72,100,5.5
496,Muros,ES,42.78,-9.06,59.65,76,20,6.93
497,East London,ZA,-33.02,27.91,66.2,68,20,3.36
498,Port Alfred,ZA,-33.59,26.89,63.88,69,100,6.42
499,Saint-Joseph,RE,-21.37,55.62,72.93,69,90,20.8
500,Cidreira,BR,-30.18,-50.21,71.82,87,4,12.1
501,Hermanus,ZA,-34.42,19.23,71.01,48,0,8.99
502,Vaini,TO,-21.2,-175.2,75.2,88,40,5.82
503,Bluff,NZ,-46.6,168.33,46.99,92,7,4.65
504,Chui,UY,-33.7,-53.46,59.36,89,100,11.39
505,Alamosa,US,37.47,-105.87,10.4,85,1,4.7
506,Erenhot,CN,43.65,111.98,43.0,54,2,9.75
507,Grindavik,IS,63.84,-22.43,39.2,80,20,13.87
508,Nador,MA,35.17,-2.93,69.8,64,0,5.82
509,Busselton,AU,-33.65,115.33,51.64,72,56,7.2
510,Severo-Kuril'sk,RU,50.68,156.12,36.55,78,100,13.38
511,Carnarvon,AU,-24.87,113.63,68.0,64,0,20.8
512,Rikitea,PF,-23.12,-134.97,73.76,79,2,15.79
513,Vestmannaeyjar,IS,63.44,-20.27,42.8,70,20,17.22
514,Buala,SB,-8.14,159.59,80.67,78,100,4.94
515,Vardø,NO,70.37,31.11,33.8,80,75,19.46
516,Chui,UY,-33.7,-53.46,59.36,89,100,11.39
517,New Norfolk,AU,-42.78,147.06,61.03,57,0,2.77
518,Port Elizabeth,ZA,-33.92,25.57,66.2,68,75,10.29
519,Kaitangata,NZ,-46.28,169.85,50.0,82,8,4.0
520,Nanortalik,GL,60.14,-45.24,29.95,91,35,21.97
521,Ruteng,ID,-8.61,120.47,65.19,100,100,1.23
522,Arraial do Cabo,BR,-22.97,-42.03,78.8,78,90,10.29
523,Atuona,PF,-9.8,-139.03,77.32,76,3,14.5
524,Tabou,CI,4.42,-7.35,81.57,81,100,11.65
525,Bredasdorp,ZA,-34.53,20.04,69.8,40,0,17.22
526,Buraidah,SA,26.33,43.98,87.8,40,75,9.17
527,Ozernovskiy,RU,51.5,156.52,36.39,76,100,8.28
528,Mossamedes,AO,-15.2,12.15,80.6,69,40,11.41
529,Jamestown,US,42.1,-79.24,54.18,81,1,9.17
530,Sālūmbar,IN,24.13,74.05,80.6,30,0,2.24
531,Butaritari,KI,3.07,172.79,81.81,78,6,8.81
532,Ixtapa,MX,20.7,-105.2,73.0,85,100,3.06
533,Charters Towers,AU,-20.1,146.27,69.6,76,0,16.08
534,Abu Samrah,SY,35.3,37.18,70.14,45,0,7.87
535,Bredasdorp,ZA,-34.53,20.04,69.8,40,0,17.22
536,Chui,UY,-33.7,-53.46,59.36,89,100,11.39
537,Maniitsoq,GL,65.42,-52.9,16.74,94,100,9.8
538,Ushuaia,AR,-54.8,-68.3,48.2,57,20,13.87
539,Egvekinot,RU,66.32,-179.17,21.36,94,100,21.45
540,Berlevåg,NO,70.86,29.09,35.4,83,75,28.86
541,Ixtapa,MX,20.7,-105.2,73.0,85,100,3.06
542,Plovdiv,BG,42.15,24.75,56.7,62,90,6.93
543,George Town,MY,5.41,100.34,83.23,79,20,3.36
544,Lüderitz,NA,-26.65,15.16,77.9,26,0,33.62
545,Barrow,US,71.29,-156.79,10.4,78,1,25.28
546,Port Alfred,ZA,-33.59,26.89,63.88,69,100,6.42
547,Cape Town,ZA,-33.93,18.42,66.2,45,0,28.86
548,Cape Town,ZA,-33.93,18.42,66.2,45,0,28.86
549,Busselton,AU,-33.65,115.33,51.64,72,56,7.2
550,Rikitea,PF,-23.12,-134.97,73.76,79,2,15.79
551,Katsuura,JP,35.13,140.3,55.17,62,75,5.82
552,Saint George,US,37.1,-113.58,30.85,86,1,2.24
553,Vaini,TO,-21.2,-175.2,75.2,88,40,5.82
554,Albany,US,42.6,-73.97,48.97,100,1,2.73
555,Abbeville,FR,50.1,1.83,57.51,81,52,5.7
556,Cidreira,BR,-30.18,-50.21,71.82,87,4,12.1
557,Guerrero Negro,MX,27.98,-114.06,58.95,64,1,9.98
558,Mataura,NZ,-46.19,168.86,46.99,92,2,1.21
559,Luba,GQ,3.46,8.55,80.69,77,94,8.63
560,Cape Town,ZA,-33.93,18.42,66.2,45,0,28.86
561,Portland,US,45.52,-122.68,41.22,87,90,10.29
562,Iqaluit,CA,63.75,-68.51,10.4,72,75,19.46
563,Bluff,NZ,-46.6,168.33,46.99,92,7,4.65
564,Albany,US,42.6,-73.97,48.97,100,1,2.73
565,Bathsheba,BB,13.22,-59.52,84.2,79,40,16.11
566,Mount Isa,AU,-20.73,139.5,86.0,35,79,6.93
567,Kathu,TH,7.92,98.33,84.34,88,40,3.36
568,Nouadhibou,MR,20.93,-17.03,84.2,28,0,9.17
569,La Ronge,CA,55.1,-105.28,14.0,78,68,6.93
570,Trelleborg,SE,55.38,13.16,47.53,87,90,9.17
571,Pisco,PE,-13.7,-76.22,63.79,82,90,2.24
572,Albany,US,42.6,-73.97,48.97,100,1,2.73
573,Mataura,NZ,-46.19,168.86,46.99,92,2,1.21
574,Ustka,PL,54.58,16.86,47.7,68,0,9.8
575,Djibouti,DJ,11.5,42.5,86.0,62,1,11.41
576,Kayerkan,RU,69.35,87.76,-2.2,84,40,11.18
577,Edson,CA,53.58,-116.44,30.2,74,90,4.7
578,Athabasca,CA,54.72,-113.29,30.2,92,100,4.7
579,Hobart,AU,-42.88,147.33,62.71,60,0,6.93
580,Arawa,PG,-6.21,155.54,78.53,79,93,2.04
581,Nikolskoye,RU,59.7,30.79,37.69,64,0,8.95
582,Sun City West,US,33.66,-112.34,47.1,56,1,6.93
583,Magadan,RU,59.57,150.8,3.34,83,0,8.12
584,Worland,US,44.02,-107.96,10.4,92,1,5.82
585,Çumra,TR,37.57,32.77,59.0,44,0,6.93
586,El Salvador,SV,13.83,-88.92,71.35,100,40,2.24
587,Huarmey,PE,-10.07,-78.15,64.65,75,57,3.67
588,Faanui,PF,-16.48,-151.75,76.35,79,100,9.33
589,Tirlyanskiy,RU,54.21,58.58,23.45,95,93,4.16
590,Ushuaia,AR,-54.8,-68.3,48.2,57,20,13.87
591,Cape Town,ZA,-33.93,18.42,66.2,45,0,28.86
592,Yellowknife,CA,62.46,-114.35,0.63,70,40,16.11
593,Bozova,TR,37.36,38.53,65.3,68,75,3.36
594,Jamestown,US,42.1,-79.24,54.18,81,1,9.17
595,Ushuaia,AR,-54.8,-68.3,48.2,57,20,13.87
596,Hamada,JP,34.88,132.08,50.0,11,93,5.17
597,Bengkulu,ID,-3.8,102.27,77.81,83,100,1.61
598,Hermanus,ZA,-34.42,19.23,71.01,48,0,8.99
599,Bandarbeyla,SO,9.49,50.81,79.03,75,0,14.9
600,Rikitea,PF,-23.12,-134.97,73.76,79,2,15.79
601,Huarmey,PE,-10.07,-78.15,64.65,75,57,3.67
602,Juneau,US,58.3,-134.42,24.21,92,40,5.59
603,Butaritari,KI,3.07,172.79,81.81,78,6,8.81
604,Antofagasta,CL,-23.65,-70.4,62.6,72,90,4.7
605,Ayan,RU,56.45,138.17,12.56,83,29,6.96
606,Bengkulu,ID,-3.8,102.27,77.81,83,100,1.61
607,Sur,OM,22.57,59.53,80.98,62,0,7.14
608,Chui,UY,-33.7,-53.46,59.36,89,100,11.39
609,Valdivia,CL,-39.81,-73.25,55.4,82,90,6.93
610,Fort Dodge,US,42.5,-94.17,30.92,100,90,14.99
611,Mahébourg,MU,-20.41,57.7,78.8,65,40,11.41
612,Port Hedland,AU,-20.32,118.57,78.8,78,0,12.75
613,Port Alfred,ZA,-33.59,26.89,63.88,69,100,6.42
614,Chui,UY,-33.7,-53.46,59.36,89,100,11.39
615,Punta Arenas,CL,-53.15,-70.92,51.8,62,20,11.41
616,Chokurdakh,RU,70.63,147.92,-11.38,91,98,2.84
617,Busselton,AU,-33.65,115.33,51.64,72,56,7.2
618,New Norfolk,AU,-42.78,147.06,61.03,57,0,2.77
619,Hobart,AU,-42.88,147.33,62.71,60,0,6.93
620,New Norfolk,AU,-42.78,147.06,61.03,57,0,2.77
621,Punta Arenas,CL,-53.15,-70.92,51.8,62,20,11.41
622,Bredasdorp,ZA,-34.53,20.04,69.8,40,0,17.22
623,Khovd,MN,48.01,91.64,33.8,69,72,8.5
624,Hermanus,ZA,-34.42,19.23,71.01,48,0,8.99
625,Norman Wells,CA,65.28,-126.83,-9.4,76,75,1.86
626,Hilo,US,19.73,-155.09,68.83,88,90,3.36
627,Albany,US,42.6,-73.97,48.97,100,1,2.73
628,Todos Santos,MX,23.45,-110.22,65.03,76,0,10.96
629,Hermanus,ZA,-34.42,19.23,71.01,48,0,8.99
630,Busselton,AU,-33.65,115.33,51.64,72,56,7.2
631,Port Alfred,ZA,-33.59,26.89,63.88,69,100,6.42
632,Terenos,BR,-20.44,-54.86,75.2,69,40,16.11
633,Punta Arenas,CL,-53.15,-70.92,51.8,62,20,11.41
634,Puerto Ayora,EC,-0.74,-90.35,66.0,92,99,9.48
635,Barrow,US,71.29,-156.79,10.4,78,1,25.28
636,Mataura,NZ,-46.19,168.86,46.99,92,2,1.21
637,Punta Arenas,CL,-53.15,-70.92,51.8,62,20,11.41
638,Assiut,EG,27.18,31.18,79.25,26,0,12.21
639,Conceição do Araguaia,BR,-8.26,-49.26,89.2,60,100,1.99
640,Busselton,AU,-33.65,115.33,51.64,72,56,7.2
641,Jamestown,US,42.1,-79.24,54.18,81,1,9.17
642,Punta Arenas,CL,-53.15,-70.92,51.8,62,20,11.41
643,Ahipara,NZ,-35.17,173.17,56.82,79,27,12.48
644,Albany,US,42.6,-73.97,48.97,100,1,2.73
645,Lorengau,PG,-2.02,147.27,82.8,72,71,6.69
646,Saint Paul Harbor,US,57.79,-152.41,30.2,80,1,4.7
647,Souillac,MU,-20.52,57.52,78.8,65,40,11.41
648,Barrow,US,71.29,-156.79,10.4,78,1,25.28
649,Freeport,US,40.66,-73.58,54.75,93,90,9.57
650,Aksarka,RU,66.56,67.8,6.08,92,2,6.58
651,Muyezerskiy,RU,63.93,31.65,29.5,94,0,7.25
652,Walvis Bay,NA,-22.96,14.51,61.0,79,0,14.72
653,Caorle,IT,45.6,12.88,62.15,44,0,4.7
654,Huarmey,PE,-10.07,-78.15,64.65,75,57,3.67
655,Yar-Sale,RU,66.83,70.83,9.23,92,82,8.01
656,Ancud,CL,-41.87,-73.82,55.53,76,0,11.41
657,Rikitea,PF,-23.12,-134.97,73.76,79,2,15.79
658,Ushuaia,AR,-54.8,-68.3,48.2,57,20,13.87
659,Mataura,NZ,-46.19,168.86,46.99,92,2,1.21
660,Cabay,PH,13.88,121.38,77.0,93,78,3.0
661,Longyearbyen,SJ,78.22,15.64,26.6,73,75,25.28
662,Barrow,US,71.29,-156.79,10.4,78,1,25.28
663,East London,ZA,-33.02,27.91,66.2,68,20,3.36
664,Busselton,AU,-33.65,115.33,51.64,72,56,7.2
665,Severo-Kuril'sk,RU,50.68,156.12,36.55,78,100,13.38
666,Ushuaia,AR,-54.8,-68.3,48.2,57,20,13.87
667,Isangel,VU,-19.55,169.27,75.24,85,100,14.61
668,Pisco,PE,-13.7,-76.22,63.79,82,90,2.24
669,Lithgow,AU,-33.48,150.15,56.98,87,0,1.54
670,Chernyshevskiy,RU,63.01,112.47,27.25,98,100,8.14
671,Port Pirie,AU,-33.18,138.02,77.0,50,93,25.28
672,Rikitea,PF,-23.12,-134.97,73.76,79,2,15.79
673,Altay,CN,47.87,88.12,32.14,82,100,2.77
674,Rikitea,PF,-23.12,-134.97,73.76,79,2,15.79
675,Ushuaia,AR,-54.8,-68.3,48.2,57,20,13.87
676,Eureka,US,40.8,-124.16,41.34,86,90,8.05
677,Morón,AR,-34.65,-58.62,68.83,71,0,3.0
678,Yellowknife,CA,62.46,-114.35,0.63,70,40,16.11
679,Kavieng,PG,-2.57,150.8,82.06,73,12,3.18
680,Arraial do Cabo,BR,-22.97,-42.03,78.8,78,90,10.29
681,Hilo,US,19.73,-155.09,68.83,88,90,3.36
682,New Norfolk,AU,-42.78,147.06,61.03,57,0,2.77
683,Bluff,NZ,-46.6,168.33,46.99,92,7,4.65
684,Lincoln,US,40.8,-96.67,31.5,95,90,13.87
685,Pandan,PH,14.05,124.17,80.92,84,100,17.56
686,Cape Town,ZA,-33.93,18.42,66.2,45,0,28.86
687,Kargil,IN,34.57,76.1,37.0,56,100,4.99
688,Flinders,AU,-34.58,150.86,57.13,93,1,8.75
689,Ribeira Grande,PT,38.52,-28.7,60.8,87,75,20.8
690,East London,ZA,-33.02,27.91,66.2,68,20,3.36
691,Kahului,US,20.89,-156.47,72.88,65,1,14.99
692,Tasiilaq,GL,65.61,-37.64,30.74,95,100,11.72
693,Arraial do Cabo,BR,-22.97,-42.03,78.8,78,90,10.29
694,Dayong,CN,25.02,118.29,68.0,52,0,17.9
695,Vaini,TO,-21.2,-175.2,75.2,88,40,5.82
696,Natchitoches,US,31.77,-93.13,60.8,100,90,4.97
697,Asău,RO,46.43,26.4,43.0,86,100,3.42
698,Port Elizabeth,ZA,-33.92,25.57,66.2,68,75,10.29
699,Bluff,NZ,-46.6,168.33,46.99,92,7,4.65
700,Hofn,IS,64.25,-15.21,44.58,67,100,7.61
701,Maningrida,AU,-12.07,134.27,82.42,77,100,9.33
702,Vaini,TO,-21.2,-175.2,75.2,88,40,5.82
703,Palafrugell,ES,41.92,3.16,64.62,54,0,9.53
704,Bahía Honda,CU,22.9,-83.16,78.39,86,43,13.11
705,Mareeba,AU,-17.0,145.43,75.09,78,90,8.05
706,Ushuaia,AR,-54.8,-68.3,48.2,57,20,13.87
707,Hamilton,US,39.18,-84.53,60.53,72,75,9.17
708,New Norfolk,AU,-42.78,147.06,61.03,57,0,2.77
709,Juba,SS,4.85,31.58,90.57,40,40,8.68
710,Bani Walid,LY,31.76,13.99,71.78,37,0,8.55
711,Port Alfred,ZA,-33.59,26.89,63.88,69,100,6.42
712,Vila Franca do Campo,PT,37.72,-25.43,66.2,88,75,27.51
713,Camacha,PT,33.08,-16.33,68.0,68,75,14.99
714,Ushuaia,AR,-54.8,-68.3,48.2,57,20,13.87
715,Tiksi,RU,71.69,128.87,-9.62,89,98,5.46
716,Emerald,AU,-23.53,148.17,72.79,56,0,10.29
717,Bredasdorp,ZA,-34.53,20.04,69.8,40,0,17.22
718,Hermanus,ZA,-34.42,19.23,71.01,48,0,8.99
719,Mataura,NZ,-46.19,168.86,46.99,92,2,1.21
720,Riacho de Santana,BR,-13.61,-42.94,83.61,47,18,4.99
721,Ushuaia,AR,-54.8,-68.3,48.2,57,20,13.87
722,Aragarças,BR,-15.9,-52.25,80.08,69,100,8.46
723,Mar del Plata,AR,-38.0,-57.56,68.0,68,20,9.17
724,Busselton,AU,-33.65,115.33,51.64,72,56,7.2
725,New Norfolk,AU,-42.78,147.06,61.03,57,0,2.77
726,Vaini,TO,-21.2,-175.2,75.2,88,40,5.82
727,Provideniya,RU,64.38,-173.3,35.6,92,100,25.99
728,Bluff,NZ,-46.6,168.33,46.99,92,7,4.65
729,Cape Town,ZA,-33.93,18.42,66.2,45,0,28.86
730,Castro,BR,-24.79,-50.01,69.15,75,100,6.69
731,Saint-Philippe,RE,-21.36,55.77,71.47,69,90,20.8
732,Ushuaia,AR,-54.8,-68.3,48.2,57,20,13.87
733,Nan,TH,18.83,100.67,66.47,72,0,1.3
734,Ca Mau,VN,9.18,105.15,75.85,81,100,5.35
735,Tasiilaq,GL,65.61,-37.64,30.74,95,100,11.72
736,Krasnyy Chikoy,RU,50.36,108.75,28.38,94,40,3.24
737,Krasnyy Yar,RU,46.53,48.35,48.09,42,0,15.66
738,Hithadhoo,MV,-0.6,73.08,83.46,76,100,16.31
739,Cape Town,ZA,-33.93,18.42,66.2,45,0,28.86
740,Arraial do Cabo,BR,-22.97,-42.03,78.8,78,90,10.29
741,Qaanaaq,GL,77.48,-69.36,-4.27,62,0,5.93
742,Puyang,CN,29.46,119.89,52.81,73,0,3.65
743,Chara,RU,56.91,118.26,25.99,89,100,0.78
744,Zholymbet,KZ,51.74,71.71,31.75,92,0,12.64
745,Mataura,NZ,-46.19,168.86,46.99,92,2,1.21
746,Kawalu,ID,-7.38,108.21,72.81,92,100,1.23
747,Lorengau,PG,-2.02,147.27,82.8,72,71,6.69
748,Kaitangata,NZ,-46.28,169.85,50.0,82,8,4.0
749,Zyryanka,RU,65.75,150.85,-9.38,91,93,5.37
750,Faanui,PF,-16.48,-151.75,76.35,79,100,9.33
751,La Palma,US,33.85,-118.05,45.72,70,1,2.42
752,Mataura,NZ,-46.19,168.86,46.99,92,2,1.21
753,Jumla,NP,29.27,82.18,46.38,66,90,3.11
754,Westport,US,41.14,-73.36,53.24,100,1,7.72
755,Punta Arenas,CL,-53.15,-70.92,51.8,62,20,11.41
756,Rikitea,PF,-23.12,-134.97,73.76,79,2,15.79
757,Constitución,CL,-35.33,-72.42,64.72,59,0,1.19
758,Freeport,US,40.66,-73.58,54.75,93,90,9.57
759,Yangjiang,CN,21.85,111.97,69.64,49,97,6.89
760,Albany,US,42.6,-73.97,48.97,100,1,2.73
761,Mar del Plata,AR,-38.0,-57.56,68.0,68,20,9.17
762,Puerto Ayora,EC,-0.74,-90.35,66.0,92,99,9.48
763,Busselton,AU,-33.65,115.33,51.64,72,56,7.2
764,Tasiilaq,GL,65.61,-37.64,30.74,95,100,11.72
765,Gamboma,CG,-1.88,15.86,81.27,68,81,4.38
766,Severo-Kuril'sk,RU,50.68,156.12,36.55,78,100,13.38
767,Punta Arenas,CL,-53.15,-70.92,51.8,62,20,11.41
768,Tuktoyaktuk,CA,69.45,-133.04,-6.36,89,0,8.3
769,Saint-Philippe,RE,-21.36,55.77,71.47,69,90,20.8
770,Markova,UA,48.68,24.41,42.8,87,90,6.71
771,Tura,IN,25.52,90.22,67.17,83,0,3.56
772,Arboletes,CO,8.85,-76.43,78.8,82,97,10.04
773,Ostrovnoy,RU,68.05,39.51,33.22,90,100,15.48
774,Busselton,AU,-33.65,115.33,51.64,72,56,7.2
775,Kushikino,JP,31.72,130.27,46.4,87,0,6.93
776,Busselton,AU,-33.65,115.33,51.64,72,56,7.2
777,Vaini,TO,-21.2,-175.2,75.2,88,40,5.82
778,Rikitea,PF,-23.12,-134.97,73.76,79,2,15.79
779,New Norfolk,AU,-42.78,147.06,61.03,57,0,2.77
780,Carnduff,CA,49.17,-101.8,4.8,91,0,3.04
781,Tartagal,AR,-22.52,-63.8,80.6,61,40,3.29
782,San Patricio,US,28.02,-97.52,65.84,100,75,4.97
783,Rikitea,PF,-23.12,-134.97,73.76,79,2,15.79
784,Katsuura,JP,35.13,140.3,55.17,62,75,5.82
785,Requena,ES,39.49,-1.1,65.5,52,0,3.0
786,Puerto Ayora,EC,-0.74,-90.35,66.0,92,99,9.48
787,Vaini,TO,-21.2,-175.2,75.2,88,40,5.82
788,Rio de Janeiro,BR,-22.9,-43.21,73.87,94,90,5.82
789,Saint Paul Harbor,US,57.79,-152.41,30.2,80,1,4.7
790,Sitka,US,57.05,-135.33,33.8,80,1,5.17
791,Nikolskoye,RU,59.7,30.79,37.69,64,0,8.95
792,Katsuura,JP,35.13,140.3,55.17,62,75,5.82
793,Port Lincoln,AU,-34.73,135.87,61.29,68,89,20.0
794,Kapaa,US,22.08,-159.32,76.03,74,75,13.87
795,Padang,ID,-0.95,100.35,78.89,75,100,2.26
796,Karratha,AU,-20.74,116.85,75.58,46,0,13.62
797,Turaif,SA,31.67,38.66,73.4,43,0,3.36
798,Dikson,RU,73.51,80.55,18.16,98,100,16.93
799,Mataura,NZ,-46.19,168.86,46.99,92,2,1.21
800,Labuhan,ID,-6.88,112.21,82.72,71,100,3.76
801,Ürümqi,CN,43.8,87.6,42.8,48,0,4.47
802,Bethel,US,41.37,-73.41,49.28,100,90,5.59
803,Puerto Ayora,EC,-0.74,-90.35,66.0,92,99,9.48
804,Mar del Plata,AR,-38.0,-57.56,68.0,68,20,9.17
805,Mirante do Paranapanema,BR,-22.29,-51.91,78.8,57,0,9.17
806,Srednekolymsk,RU,67.45,153.68,-6.93,90,98,13.62
807,Altamira,BR,-3.2,-52.21,78.8,83,75,2.24
808,Cabadiangan,PH,9.75,122.47,78.98,81,100,4.7
809,Ushuaia,AR,-54.8,-68.3,48.2,57,20,13.87
810,Ushuaia,AR,-54.8,-68.3,48.2,57,20,13.87
811,São Filipe,CV,14.9,-24.5,80.56,70,15,4.03
812,Rikitea,PF,-23.12,-134.97,73.76,79,2,15.79
813,Cape Town,ZA,-33.93,18.42,66.2,45,0,28.86
814,Butaritari,KI,3.07,172.79,81.81,78,6,8.81
815,Saint Paul Harbor,US,57.79,-152.41,30.2,80,1,4.7
816,Muisne,EC,0.6,-80.03,73.33,84,98,11.36
817,Ushuaia,AR,-54.8,-68.3,48.2,57,20,13.87
818,Tiksi,RU,71.69,128.87,-9.62,89,98,5.46
819,Hobart,AU,-42.88,147.33,62.71,60,0,6.93
820,Busselton,AU,-33.65,115.33,51.64,72,56,7.2
821,Warwick,US,41.7,-71.42,52.84,93,90,3.36
822,Chui,UY,-33.7,-53.46,59.36,89,100,11.39
823,Mataura,NZ,-46.19,168.86,46.99,92,2,1.21
824,Pevek,RU,69.7,170.31,18.54,95,90,6.29
825,Saskylakh,RU,71.92,114.08,6.03,94,100,3.13
826,Cape Town,ZA,-33.93,18.42,66.2,45,0,28.86
827,Hualmay,PE,-11.1,-77.61,64.33,76,78,5.57
828,Mataura,NZ,-46.19,168.86,46.99,92,2,1.21
829,Kifrī,IQ,34.7,44.97,74.86,47,0,3.13
830,Ribeira Grande,PT,38.52,-28.7,60.8,87,75,20.8
831,Tiksi,RU,71.69,128.87,-9.62,89,98,5.46
832,Jamestown,US,42.1,-79.24,54.18,81,1,9.17
833,Black River,JM,18.03,-77.85,81.14,78,40,4.7
834,Beaverlodge,CA,55.22,-119.44,33.8,64,75,14.99
835,Durban,ZA,-29.86,31.03,65.43,88,75,4.7
836,Busselton,AU,-33.65,115.33,51.64,72,56,7.2
837,Gornopravdinsk,RU,60.05,69.9,26.19,97,98,6.42
838,East London,ZA,-33.02,27.91,66.2,68,20,3.36
839,Pringsewu,ID,-5.36,104.97,76.35,85,95,2.66
840,Xanxerê,BR,-26.88,-52.4,69.8,83,40,6.93
841,Yellowknife,CA,62.46,-114.35,0.63,70,40,16.11
842,Busselton,AU,-33.65,115.33,51.64,72,56,7.2
843,Airai,TL,-8.93,125.41,64.4,100,100,1.83
844,Hasaki,JP,35.73,140.83,43.93,81,75,3.36
845,Champerico,GT,14.3,-91.92,73.4,94,40,6.29
846,Geraldton,AU,-28.77,114.6,60.8,59,90,4.7
847,Albany,US,42.6,-73.97,48.97,100,1,2.73
848,Busselton,AU,-33.65,115.33,51.64,72,56,7.2
849,Coffs Harbour,AU,-30.3,153.13,64.44,72,90,5.82
850,Puerto Ayacucho,VE,5.66,-67.62,78.67,80,86,2.21
851,Kapaa,US,22.08,-159.32,76.03,74,75,13.87
852,Morgantown,US,39.63,-79.96,55.24,76,1,3.96
853,Husavik,IS,66.04,-17.34,41.0,56,0,4.7
854,Cidreira,BR,-30.18,-50.21,71.82,87,4,12.1
855,Barrow,US,71.29,-156.79,10.4,78,1,25.28
856,Cabo San Lucas,MX,22.89,-109.91,70.02,77,50,3.0
857,Naze,JP,28.37,129.48,71.6,78,75,16.11
858,Bambari,CF,5.77,20.68,89.67,41,85,4.03
859,Igarka,RU,67.47,86.58,2.3,93,90,3.02
860,Ahtopol,BG,42.1,27.95,55.17,62,20,14.99
861,Falmouth,GB,50.15,-5.07,53.76,81,40,10.29
862,Vaini,TO,-21.2,-175.2,75.2,88,40,5.82
863,Bambous Virieux,MU,-20.34,57.76,78.42,65,40,11.41
864,Barrow,US,71.29,-156.79,10.4,78,1,25.28
865,Hobart,AU,-42.88,147.33,62.71,60,0,6.93
866,Wembley,AU,-31.93,115.8,58.14,58,75,11.41
867,Lebu,CL,-37.62,-73.65,56.88,72,20,17.6
868,Kanniyākumāri,IN,8.08,77.57,83.05,65,100,6.06
869,Ushuaia,AR,-54.8,-68.3,48.2,57,20,13.87
870,Dondo,MZ,-19.61,34.74,86.0,74,75,21.92
871,George Town,MY,5.41,100.34,83.23,79,20,3.36
872,San Patricio,US,28.02,-97.52,65.84,100,75,4.97
873,St. Pete Beach,US,27.73,-82.74,77.18,94,40,16.11
874,Fort Nelson,CA,58.81,-122.7,15.8,78,90,12.75
875,Alice Springs,AU,-23.7,133.88,98.6,16,91,10.29
876,Bethel,US,41.37,-73.41,49.28,100,90,5.59
877,Hilton Head,US,32.22,-80.75,72.54,88,75,9.17
878,Khatanga,RU,71.97,102.5,0.16,92,100,7.67
879,Ilulissat,GL,69.22,-51.1,17.6,72,75,11.41
880,Esperance,AU,-33.87,121.9,53.6,100,90,25.28
881,Hamilton,US,39.18,-84.53,60.53,72,75,9.17
882,Bethel,US,41.37,-73.41,49.28,100,90,5.59
883,Punta Arenas,CL,-53.15,-70.92,51.8,62,20,11.41
884,Bosaso,SO,11.28,49.18,82.4,78,0,12.75
885,Punta Arenas,CL,-53.15,-70.92,51.8,62,20,11.41
886,Ushuaia,AR,-54.8,-68.3,48.2,57,20,13.87
887,Grindavik,IS,63.84,-22.43,39.2,80,20,13.87
888,Taltal,CL,-25.4,-70.48,60.75,67,78,2.73
889,The Valley,AI,18.22,-63.06,75.9,94,40,16.11
890,Monopoli,IT,40.96,17.29,64.8,67,40,13.87
891,Una,IN,20.82,71.03,78.1,46,0,7.78
892,Fortuna,US,40.6,-124.16,40.35,86,90,8.05
893,Port Alfred,ZA,-33.59,26.89,63.88,69,100,6.42
894,New Norfolk,AU,-42.78,147.06,61.03,57,0,2.77
895,Chui,UY,-33.7,-53.46,59.36,89,100,11.39
896,Butaritari,KI,3.07,172.79,81.81,78,6,8.81
897,Tucumã,BR,-0.18,-50.05,86.61,63,99,5.14
898,George Town,MY,5.41,100.34,83.23,79,20,3.36
899,Mamlyutka,KZ,54.94,68.54,33.8,69,90,13.42
900,Qurayyat,SA,31.33,37.34,73.4,33,0,11.41
901,Japura,ID,-0.32,102.35,74.88,92,100,1.43
902,Cabo San Lucas,MX,22.89,-109.91,70.02,77,50,3.0
903,Tuktoyaktuk,CA,69.45,-133.04,-6.36,89,0,8.3
904,Rikitea,PF,-23.12,-134.97,73.76,79,2,15.79
905,Norman Wells,CA,65.28,-126.83,-9.4,76,75,1.86
906,Aswān,EG,24.09,32.91,83.61,21,0,7.94
907,Ondangwa,NA,-17.92,15.95,96.85,13,1,6.58
908,Tsumeb,NA,-19.23,17.72,94.12,17,100,5.12
909,Jalu,LY,29.03,21.55,74.12,43,79,13.02
910,Rikitea,PF,-23.12,-134.97,73.76,79,2,15.79
911,Batagay-Alyta,RU,67.8,130.41,-15.23,87,100,2.48
912,Dakar,SN,14.69,-17.44,89.6,52,0,2.24
913,Ushuaia,AR,-54.8,-68.3,48.2,57,20,13.87
914,Port Alfred,ZA,-33.59,26.89,63.88,69,100,6.42
915,Jardim,BR,-21.48,-56.14,82.26,68,100,6.69
916,Waingapu,ID,-9.66,120.26,83.48,72,100,8.37
917,Rikitea,PF,-23.12,-134.97,73.76,79,2,15.79
918,Jamestown,US,42.1,-79.24,54.18,81,1,9.17
919,Lamu,KE,-2.27,40.9,86.0,66,20,9.17
920,Busselton,AU,-33.65,115.33,51.64,72,56,7.2
921,Saint-Philippe,RE,-21.36,55.77,71.47,69,90,20.8
922,Kamaishi,JP,39.27,141.88,38.93,76,38,7.07
923,Saint Paul Harbor,US,57.79,-152.41,30.2,80,1,4.7
924,Dingle,PH,11.0,122.67,76.86,87,100,3.94
925,Dikson,RU,73.51,80.55,18.16,98,100,16.93
926,Qaanaaq,GL,77.48,-69.36,-4.27,62,0,5.93
927,Hualmay,PE,-11.1,-77.61,64.33,76,78,5.57
928,Rikitea,PF,-23.12,-134.97,73.76,79,2,15.79
929,Adrar,MR,20.5,-10.07,91.42,11,0,11.34
930,Tanout,NE,14.97,8.89,84.85,18,0,13.85
931,Tuktoyaktuk,CA,69.45,-133.04,-6.36,89,0,8.3
932,Bethel,US,41.37,-73.41,49.28,100,90,5.59
933,Taoudenni,ML,22.68,-3.98,95.45,10,0,10.04
934,Kapaa,US,22.08,-159.32,76.03,74,75,13.87
935,Saint-Philippe,RE,-21.36,55.77,71.47,69,90,20.8
936,Departamento de Maldonado,UY,-34.67,-54.92,66.96,72,75,11.41
937,Cayenne,GF,4.93,-52.33,84.2,83,75,2.24
938,Punta Arenas,CL,-53.15,-70.92,51.8,62,20,11.41
939,Albany,US,42.6,-73.97,48.97,100,1,2.73
940,Vigrestad,NO,58.57,5.7,48.67,79,100,5.99
941,Angoram,PG,-4.06,144.07,77.07,91,100,2.24
942,Vila Franca do Campo,PT,37.72,-25.43,66.2,88,75,27.51
943,Katsuura,JP,35.13,140.3,55.17,62,75,5.82
944,Yellowknife,CA,62.46,-114.35,0.63,70,40,16.11
945,Ushuaia,AR,-54.8,-68.3,48.2,57,20,13.87
946,Rikitea,PF,-23.12,-134.97,73.76,79,2,15.79
947,Cape Town,ZA,-33.93,18.42,66.2,45,0,28.86
948,Bodden Town,KY,19.28,-81.25,81.79,78,40,13.87
949,Jamestown,US,42.1,-79.24,54.18,81,1,9.17
950,Cayenne,GF,4.93,-52.33,84.2,83,75,2.24
951,Sabang,ID,5.89,95.32,81.97,80,100,10.83
952,Severo-Kuril'sk,RU,50.68,156.12,36.55,78,100,13.38
953,Rikitea,PF,-23.12,-134.97,73.76,79,2,15.79
954,Provideniya,RU,64.38,-173.3,35.6,92,100,25.99
955,Punta Arenas,CL,-53.15,-70.92,51.8,62,20,11.41
956,Rikitea,PF,-23.12,-134.97,73.76,79,2,15.79
957,Elk City,US,35.41,-99.4,39.2,86,40,16.11
958,Abadan,TM,38.05,58.21,59.0,58,40,4.7
959,Pitimbu,BR,-7.47,-34.81,82.4,74,75,14.99
960,Moussoro,TD,13.64,16.49,92.66,16,0,10.67
961,Abu Dhabi,AE,24.47,54.37,87.03,52,0,13.87
962,Puerto Ayora,EC,-0.74,-90.35,66.0,92,99,9.48
963,Cayenne,GF,4.93,-52.33,84.2,83,75,2.24
964,Sisimiut,GL,66.94,-53.67,15.87,93,99,9.46
965,Bobo-Dioulasso,BF,11.18,-4.3,92.53,16,0,6.71
966,Ushuaia,AR,-54.8,-68.3,48.2,57,20,13.87
967,Punta Arenas,CL,-53.15,-70.92,51.8,62,20,11.41
968,Mar del Plata,AR,-38.0,-57.56,68.0,68,20,9.17
969,Bluff,NZ,-46.6,168.33,46.99,92,7,4.65
970,Jutaí,BR,-5.18,-68.9,77.29,92,100,3.06
971,Bouaflé,CI,6.99,-5.74,86.0,66,75,4.7
972,Kalengwa,ZM,-13.47,25.0,96.75,15,100,5.91
973,Busselton,AU,-33.65,115.33,51.64,72,56,7.2
974,Busselton,AU,-33.65,115.33,51.64,72,56,7.2
975,Busselton,AU,-33.65,115.33,51.64,72,56,7.2
976,Nikolskoye,RU,59.7,30.79,37.69,64,0,8.95
977,Celestún,MX,20.87,-90.4,77.4,84,5,12.21
978,Busselton,AU,-33.65,115.33,51.64,72,56,7.2
979,Luwuk,ID,-0.95,122.79,78.53,74,100,0.69
980,Mīzan Teferī,ET,6.98,35.58,72.03,79,40,2.1
981,Taltal,CL,-25.4,-70.48,60.75,67,78,2.73
982,Klaksvík,FO,62.23,-6.59,51.8,100,100,16.11
983,Mataura,NZ,-46.19,168.86,46.99,92,2,1.21
984,Takoradze,GH,4.88,-1.76,83.48,69,34,7.63
985,Rikitea,PF,-23.12,-134.97,73.76,79,2,15.79
986,Yinchuan,CN,38.47,106.27,50.81,43,1,3.74
987,Cabo San Lucas,MX,22.89,-109.91,70.02,77,50,3.0
988,Narsaq,GL,60.92,-46.05,23.0,85,75,3.36
989,Tuktoyaktuk,CA,69.45,-133.04,-6.36,89,0,8.3
990,Ganzhou,CN,28.82,115.43,57.36,56,0,4.23
991,Punta Arenas,CL,-53.15,-70.92,51.8,62,20,11.41
992,Ushuaia,AR,-54.8,-68.3,48.2,57,20,13.87
993,Deputatsky,RU,69.3,139.9,-24.11,89,46,1.99
994,Oussouye,SN,12.48,-16.55,90.48,66,40,4.7
995,Nikolskiy,RU,60.92,34.06,32.56,94,2,4.36
996,Alofi,NU,-19.06,-169.92,71.6,88,100,10.29
997,Seoul,KR,37.57,126.98,42.78,75,1,2.91
998,New Norfolk,AU,-42.78,147.06,61.03,57,0,2.77
999,Barrow,US,71.29,-156.79,10.4,78,1,25.28
1000,Östersund,SE,63.18,14.64,32.0,79,90,2.24
1001,Vao,NC,-22.67,167.48,70.39,66,100,14.97
1002,Yeppoon,AU,-23.13,150.73,71.6,64,0,6.93
1003,East Liverpool,US,40.62,-80.58,54.7,82,1,4.7
1004,Bluff,NZ,-46.6,168.33,46.99,92,7,4.65
1005,Cape Town,ZA,-33.93,18.42,66.2,45,0,28.86
1006,Aklavik,CA,68.22,-135.01,-6.65,76,0,4.7
1007,Alta Floresta,BR,-9.88,-56.09,82.0,71,100,5.19
1008,Rikitea,PF,-23.12,-134.97,73.76,79,2,15.79
1009,Uthal,PK,25.81,66.62,79.47,47,0,7.27
1010,Coahuayana Viejo,MX,18.73,-103.68,70.75,64,11,3.76
1011,Mitsamiouli,KM,-11.38,43.28,80.46,75,100,11.65
1012,Cherskiy,RU,68.75,161.3,0.3,93,100,5.03
1013,Puerto Ayora,EC,-0.74,-90.35,66.0,92,99,9.48
1014,Pinawa,CA,50.15,-95.88,16.54,90,97,4.7
1015,Vaini,TO,-21.2,-175.2,75.2,88,40,5.82
1016,Cabo San Lucas,MX,22.89,-109.91,70.02,77,50,3.0
1017,Coquimbo,CL,-29.95,-71.34,53.6,93,90,3.36
1018,Ulladulla,AU,-35.35,150.47,54.12,93,1,7.25
1019,Ballitoville,ZA,-29.54,31.21,66.2,88,75,4.7
1020,Nantucket,US,41.28,-70.1,56.14,93,20,6.93
1021,Atuona,PF,-9.8,-139.03,77.32,76,3,14.5
1022,Albany,US,42.6,-73.97,48.97,100,1,2.73
1023,Ushuaia,AR,-54.8,-68.3,48.2,57,20,13.87
1024,Kaitangata,NZ,-46.28,169.85,50.0,82,8,4.0
1025,Balabac,PH,7.99,117.06,80.38,80,92,4.16
1026,Nikolskoye,RU,59.7,30.79,37.69,64,0,8.95
1027,Manger,NO,60.64,5.04,49.33,87,100,1.01
1028,Ambilobe,MG,-13.2,49.05,86.07,55,92,4.79
1029,Nong Bua,TH,15.86,100.59,72.54,74,54,2.1
1030,Butaritari,KI,3.07,172.79,81.81,78,6,8.81
1031,Hilo,US,19.73,-155.09,68.83,88,90,3.36
1032,Kapaa,US,22.08,-159.32,76.03,74,75,13.87
1033,Westport,US,41.14,-73.36,53.24,100,1,7.72
1034,Nikolskoye,RU,59.7,30.79,37.69,64,0,8.95
1035,Fairbanks,US,64.84,-147.72,21.74,79,90,5.82
1036,Port Alfred,ZA,-33.59,26.89,63.88,69,100,6.42
1037,Khatanga,RU,71.97,102.5,0.16,92,100,7.67
1038,Tasiilaq,GL,65.61,-37.64,30.74,95,100,11.72
1039,Cherskiy,RU,68.75,161.3,0.3,93,100,5.03
1040,Port Alfred,ZA,-33.59,26.89,63.88,69,100,6.42
1041,Lüderitz,NA,-26.65,15.16,77.9,26,0,33.62
1042,Port Elizabeth,ZA,-33.92,25.57,66.2,68,75,10.29
1043,Wanganui,NZ,-39.93,175.05,52.0,77,94,1.99
1044,São Gabriel da Cachoeira,BR,-0.13,-67.09,83.91,71,55,2.59
1045,Qaanaaq,GL,77.48,-69.36,-4.27,62,0,5.93
1046,Hong Kong,HK,22.29,114.16,69.12,69,61,1.99
1047,Chui,UY,-33.7,-53.46,59.36,89,100,11.39
1048,Vaini,TO,-21.2,-175.2,75.2,88,40,5.82
1049,Dikson,RU,73.51,80.55,18.16,98,100,16.93
1050,Shelburne,CA,44.08,-80.2,54.81,82,1,10.29
1051,Atakent,KZ,40.85,68.51,53.82,47,0,6.02
1052,Ambilobe,MG,-13.2,49.05,86.07,55,92,4.79
1053,Swan River,CA,52.11,-101.27,-2.2,91,0,10.29
1054,Imbituba,BR,-28.24,-48.67,69.8,100,90,4.7
1055,Mahébourg,MU,-20.41,57.7,78.8,65,40,11.41
1056,Togur,RU,58.36,82.83,28.63,95,99,8.37
1057,Cherskiy,RU,68.75,161.3,0.3,93,100,5.03
1058,Torbay,CA,47.67,-52.73,45.72,93,90,14.99
1059,Leh,IN,34.17,77.58,36.19,54,98,5.14
1060,Yellowknife,CA,62.46,-114.35,0.63,70,40,16.11
1061,Virginia Beach,US,36.85,-75.98,62.15,87,75,6.53
1062,Vao,NC,-22.67,167.48,70.39,66,100,14.97
1063,Ambilobe,MG,-13.2,49.05,86.07,55,92,4.79
1064,Busselton,AU,-33.65,115.33,51.64,72,56,7.2
1065,George Town,MY,5.41,100.34,83.23,79,20,3.36
1066,Nome,US,64.5,-165.41,36.23,86,90,21.92
1067,Srostki,RU,52.42,85.7,35.55,82,96,20.65
1068,Faanui,PF,-16.48,-151.75,76.35,79,100,9.33
1069,Qaanaaq,GL,77.48,-69.36,-4.27,62,0,5.93
1070,Rikitea,PF,-23.12,-134.97,73.76,79,2,15.79
1071,Tuktoyaktuk,CA,69.45,-133.04,-6.36,89,0,8.3
1072,Srednekolymsk,RU,67.45,153.68,-6.93,90,98,13.62
1073,Carnarvon,AU,-24.87,113.63,68.0,64,0,20.8
1074,Walvis Bay,NA,-22.96,14.51,61.0,79,0,14.72
1075,Cherskiy,RU,68.75,161.3,0.3,93,100,5.03
1076,Thinadhoo,MV,0.53,72.93,84.07,73,100,10.18
1077,Mataura,NZ,-46.19,168.86,46.99,92,2,1.21
1078,Puerto Ayora,EC,-0.74,-90.35,66.0,92,99,9.48
1079,Klaksvík,FO,62.23,-6.59,51.8,100,100,16.11
1080,Mataura,NZ,-46.19,168.86,46.99,92,2,1.21
1081,Hilo,US,19.73,-155.09,68.83,88,90,3.36
1082,Bethel,US,41.37,-73.41,49.28,100,90,5.59
1083,Östersund,SE,63.18,14.64,32.0,79,90,2.24
1084,Torbay,CA,47.67,-52.73,45.72,93,90,14.99
1085,Carnarvon,AU,-24.87,113.63,68.0,64,0,20.8
1086,Tasiilaq,GL,65.61,-37.64,30.74,95,100,11.72
1087,Atuona,PF,-9.8,-139.03,77.32,76,3,14.5
1088,Goundam,ML,16.41,-3.67,93.78,11,0,17.52
1089,Bambous Virieux,MU,-20.34,57.76,78.42,65,40,11.41
1090,Vaini,TO,-21.2,-175.2,75.2,88,40,5.82
1091,Hobart,AU,-42.88,147.33,62.71,60,0,6.93
1092,Albany,US,42.6,-73.97,48.97,100,1,2.73
1093,Bathsheba,BB,13.22,-59.52,84.2,79,40,16.11
1094,Barrow,US,71.29,-156.79,10.4,78,1,25.28
1095,Hermanus,ZA,-34.42,19.23,71.01,48,0,8.99
1096,New Norfolk,AU,-42.78,147.06,61.03,57,0,2.77
1097,São Félix do Xingu,BR,-6.64,-51.99,88.5,57,100,1.68
1098,Carnarvon,AU,-24.87,113.63,68.0,64,0,20.8
1099,Kiryat Gat,IL,31.61,34.76,73.65,63,3,10.67
1100,Saint-Philippe,RE,-21.36,55.77,71.47,69,90,20.8
1101,Butaritari,KI,3.07,172.79,81.81,78,6,8.81
1102,Pevek,RU,69.7,170.31,18.54,95,90,6.29
1103,Saint-Augustin,CA,51.23,-58.65,43.38,94,100,16.87
1104,Dikson,RU,73.51,80.55,18.16,98,100,16.93
1105,Mataura,NZ,-46.19,168.86,46.99,92,2,1.21
1106,San Cristobal,VE,7.77,-72.22,75.2,94,75,2.24
1107,Isangel,VU,-19.55,169.27,75.24,85,100,14.61
1108,Ushuaia,AR,-54.8,-68.3,48.2,57,20,13.87
1109,Rikitea,PF,-23.12,-134.97,73.76,79,2,15.79
1110,Pithora,IN,21.27,82.52,67.91,52,0,2.33
1111,Mahébourg,MU,-20.41,57.7,78.8,65,40,11.41
1112,Albany,US,42.6,-73.97,48.97,100,1,2.73
1113,Verāval,IN,20.9,70.37,80.89,53,0,8.05
1114,Kapaa,US,22.08,-159.32,76.03,74,75,13.87
1115,Karlstad,SE,59.38,13.5,41.0,100,90,5.44
1116,Mataura,NZ,-46.19,168.86,46.99,92,2,1.21
1117,Ballina,AU,-28.87,153.57,57.72,87,40,3.36
1118,Rikitea,PF,-23.12,-134.97,73.76,79,2,15.79
1119,Los Llanos de Aridane,ES,28.66,-17.92,68.95,69,75,6.93
1120,Busselton,AU,-33.65,115.33,51.64,72,56,7.2
1121,Busselton,AU,-33.65,115.33,51.64,72,56,7.2
1122,Dalvik,IS,65.97,-18.53,41.0,56,0,4.7
1123,Katsuura,JP,35.13,140.3,55.17,62,75,5.82
1124,Yellowknife,CA,62.46,-114.35,0.63,70,40,16.11
1125,Comodoro Rivadavia,AR,-45.87,-67.5,66.2,55,0,2.24
1126,Klerksdorp,ZA,-26.85,26.67,78.89,45,50,17.58
1127,Roald,NO,62.58,6.13,49.46,87,75,3.36
1128,Kawalu,ID,-7.38,108.21,72.81,92,100,1.23
1129,Mount Gambier,AU,-37.83,140.77,77.0,47,100,18.34
1130,Bredasdorp,ZA,-34.53,20.04,69.8,40,0,17.22
1131,Kahului,US,20.89,-156.47,72.88,65,1,14.99
1132,Mīzan Teferī,ET,6.98,35.58,72.03,79,40,2.1
1133,Avarua,CK,-21.21,-159.78,75.2,94,0,14.34
1134,Atuona,PF,-9.8,-139.03,77.32,76,3,14.5
1135,El Centro,US,32.79,-115.56,44.13,52,1,5.82
1136,Tabasalu,EE,59.43,24.53,45.18,70,75,6.93
1137,Ambositra,MG,-20.52,47.25,76.57,50,0,12.1
1138,Chokurdakh,RU,70.63,147.92,-11.38,91,98,2.84
1139,Hilo,US,19.73,-155.09,68.83,88,90,3.36
1140,Pitimbu,BR,-7.47,-34.81,82.4,74,75,14.99
1141,Jumla,NP,29.27,82.18,46.38,66,90,3.11
1142,Kirkwall,GB,58.98,-2.96,51.8,93,90,24.16
1143,Codrington,AU,-38.27,141.97,70.47,67,100,17.09
1144,San Patricio,US,28.02,-97.52,65.84,100,75,4.97
1145,Codrington,AU,-38.27,141.97,70.47,67,100,17.09
1146,Kavaratti,IN,10.57,72.64,83.64,72,94,9.24
1147,Ribeira Grande,PT,38.52,-28.7,60.8,87,75,20.8
1148,Tiksi,RU,71.69,128.87,-9.62,89,98,5.46
